{
  "total_reports": 335,
  "affected_cities": 9,
  "status": "minor issues",
  "average_duration": "1h 15m",
  "services_affected": [
    { "service": "5G Data", "percentage": 38 },
    { "service": "Voice Calls", "percentage": 24 },
    { "service": "4G LTE Data", "percentage": 18 },
    { "service": "Text Messages", "percentage": 12 },
    { "service": "Mobile Hotspot", "percentage": 6 },
    { "service": "Visual Voicemail", "percentage": 2 }
  ],
  "outage_locations": [
    {
      "city": "Chicago",
      "state": "IL",
      "lat": 41.8781,
      "lng": -87.6298,
      "reportCount": 89,
      "problemType": "Network Outage",
      "severity": "high",
      "affectedServices": ["5G Data", "Voice Calls", "Text Messages"],
      "duration": "2 hours"
    },
    {
      "city": "Boston",
      "state": "MA",
      "lat": 42.3601,
      "lng": -71.0589,
      "reportCount": 54,
      "problemType": "Signal Degradation",
      "severity": "medium",
      "affectedServices": ["5G Data", "4G LTE Data"],
      "duration": "1.5 hours"
    },
    {
      "city": "Denver",
      "state": "CO",
      "lat": 39.7392,
      "lng": -104.9903,
      "reportCount": 42,
      "problemType": "Service Interruption",
      "severity": "medium",
      "affectedServices": ["Voice Calls"],
      "duration": "45 min"
    },
    {
      "city": "San Diego",
      "state": "CA",
      "lat": 32.7157,
      "lng": -117.1611,
      "reportCount": 38,
      "problemType": "Connection Issues",
      "severity": "low",
      "affectedServices": ["Mobile Hotspot", "5G Data"],
      "duration": "30 min"
    },
    {
      "city": "Portland",
      "state": "OR",
      "lat": 45.5152,
      "lng": -122.6784,
      "reportCount": 31,
      "problemType": "Signal Degradation",
      "severity": "low",
      "affectedServices": ["4G LTE Data"],
      "duration": "1 hour"
    },
    {
      "city": "Austin",
      "state": "TX",
      "lat": 30.2672,
      "lng": -97.7431,
      "reportCount": 27,
      "problemType": "Service Interruption",
      "severity": "low",
      "affectedServices": ["Text Messages", "Visual Voicemail"],
      "duration": "15 min"
    },
    {
      "city": "Detroit",
      "state": "MI",
      "lat": 42.3314,
      "lng": -83.0458,
      "reportCount": 24,
      "problemType": "Connection Issues",
      "severity": "low",
      "affectedServices": ["Voice Calls"],
      "duration": "30 min"
    },
    {
      "city": "Nashville",
      "state": "TN",
      "lat": 36.1627,
      "lng": -86.7816,
      "reportCount": 18,
      "problemType": "Signal Degradation",
      "severity": "low",
      "affectedServices": ["5G Data"],
      "duration": "45 min"
    },
    {
      "city": "Las Vegas",
      "state": "NV",
      "lat": 36.1699,
      "lng": -115.1398,
      "reportCount": 12,
      "problemType": "Connection Issues",
      "severity": "low",
      "affectedServices": ["Mobile Hotspot"],
      "duration": "15 min"
    }
  ]
}
